[{"html_attributions": [], "results": [{"business_status": "OPERATIONAL", "geometry": {"location": {"lat": 39.95164109999999, "lng": -86.26169589999999}, "viewport": {"northeast": {"lat": 39.95291848029149, "lng": -86.26032501970849}, "southwest": {"lat": 39.95022051970849, "lng": -86.2630229802915}}}, "icon": "https://maps.gstatic.com/mapfiles/place_api/icons/v1/png_71/generic_business-71.png", "icon_background_color": "#7B9EB0", "icon_mask_base_uri": "https://maps.gstatic.com/mapfiles/place_api/icons/v2/generic_pinlet", "name": "Hopwood Cellars Winery", "opening_hours": {"open_now": false}, "photos": [{"height": 1536, "html_attributions": ["<a href=\"https://maps.google.com/maps/contrib/112026337024624658823\">Wes Weber</a>"], "photo_reference": "Aap_uEDLm_EgXcX5JGO85a1rLIdSr_hvilAxSL81VDWqLuzenH-BR18Oa2bQqMmJ5vSRzZ4B9Bfukw34IRd9T7Pe0b9C_xe8j0L70gD28zSQaxYXPHGvdy7Vg9Q9L8xvA5FWBK3gVkiC4bOGpHVZ8Ge0JJfB86o5mL3AW9ueaygvhXndQf6A", "width": 2048}], "place_id": "ChIJYcyNqWRVE4gRM9gFRw7PhXk", "plus_code": {"compound_code": "XP2Q+M8 Zionsville, IN, USA", "global_code": "86FMXP2Q+M8"}, "rating": 4.7, "reference": "ChIJYcyNqWRVE4gRM9gFRw7PhXk", "scope": "GOOGLE", "types": ["tourist_attraction", "bar", "food", "point_of_interest", "establishment"], "user_ratings_total": 95, "vicinity": "12 East Cedar Street, Zionsville"}, {"business_status": "OPERATIONAL", "geometry": {"location": {"lat": 39.9510641, "lng": -86.2626423}, "viewport": {"northeast": {"lat": 39.9524315802915, "lng": -86.2611820197085}, "southwest": {"lat": 39.9497336197085, "lng": -86.2638799802915}}}, "icon": "https://maps.gstatic.com/mapfiles/place_api/icons/v1/png_71/park-71.png", "icon_background_color": "#4DB546", "icon_mask_base_uri": "https://maps.gstatic.com/mapfiles/place_api/icons/v2/tree_pinlet", "name": "Lincoln Park", "opening_hours": {"open_now": false}, "photos": [{"height": 3024, "html_attributions": ["<a href=\"https://maps.google.com/maps/contrib/100147720626260860852\">David Riggleman</a>"], "photo_reference": "Aap_uEA9duHxP5WE6NTihw5-LMusGaE222YiZvLVfQcnkvkFCNZxdfkXZunZej0XqSTMhMVRwzBzDFZFiekaQ7VDU4sEAgXGQyqm4Vp4h-b6QttvEw5OoN6dhEjiB9St8H-m2rNC9yASoDB1elTYg-tTtx_RzOKKv1mNIq6BN6DANGMXBQx_", "width": 4032}], "place_id": "ChIJZbckuWRVE4gRGz1WqaRRgj8", "plus_code": {"compound_code": "XP2P+CW Zionsville, IN, USA", "global_code": "86FMXP2P+CW"}, "rating": 4.7, "reference": "ChIJZbckuWRVE4gRGz1WqaRRgj8", "scope": "GOOGLE", "types": ["park", "tourist_attraction", "point_of_interest", "establishment"], "user_ratings_total": 21, "vicinity": "Zionsville"}, {"business_status": "OPERATIONAL", "geometry": {"location": {"lat": 39.9479514, "lng": -86.2589873}, "viewport": {"northeast": {"lat": 39.9493530302915, "lng": -86.2576820697085}, "southwest": {"lat": 39.9466550697085, "lng": -86.2603800302915}}}, "icon": "https://maps.gstatic.com/mapfiles/place_api/icons/v1/png_71/park-71.png", "icon_background_color": "#4DB546", "icon_mask_base_uri": "https://maps.gstatic.com/mapfiles/place_api/icons/v2/tree_pinlet", "name": "Creekside Nature Park", "opening_hours": {"open_now": false}, "photos": [{"height": 1664, "html_attributions": ["<a href=\"https://maps.google.com/maps/contrib/106174721262122624024\">Declan Lopez</a>"], "photo_reference": "Aap_uECzvZTHaf8SDanM55m_vS4vL_fFGajFJ6OWVauwsYeQAbgiQS7eGsx81i__I2dUwRzIEyoIRFBLrYErAJhf1zJ0dnHWdbpR_n4Q1Bu6w00esoKbP9IRG_asa8dWkfhGO3y6yBmHDsBGFaApD7dZP8yhqKCBlAnlZw93B7Fais3GNyV6", "width": 2500}], "place_id": "ChIJwV9TsmNVE4gRTrvEqn-AV1A", "plus_code": {"compound_code": "WPXR+5C Zionsville, IN, USA", "global_code": "86FMWPXR+5C"}, "rating": 4.7, "reference": "ChIJwV9TsmNVE4gRTrvEqn-AV1A", "scope": "GOOGLE", "types": ["park", "tourist_attraction", "point_of_interest", "establishment"], "user_ratings_total": 43, "vicinity": "11001 Sycamore Street, Zionsville"}, {"business_status": "OPERATIONAL", "geometry": {"location": {"lat": 39.9508482, "lng": -86.2751339}, "viewport": {"northeast": {"lat": 39.9521959802915, "lng": -86.2739316697085}, "southwest": {"lat": 39.9494980197085, "lng": -86.27662963029151}}}, "icon": "https://maps.gstatic.com/mapfiles/place_api/icons/v1/png_71/park-71.png", "icon_background_color": "#4DB546", "icon_mask_base_uri": "https://maps.gstatic.com/mapfiles/place_api/icons/v2/tree_pinlet", "name": "Zionsville Parks & Recreation", "opening_hours": {"open_now": false}, "photos": [{"height": 5304, "html_attributions": ["<a href=\"https://maps.google.com/maps/contrib/117568216843443061315\">Zionsville Parks &amp; Recreation</a>"], "photo_reference": "Aap_uEAiGv-bU99T-rN5oZtGrSrTaxcjE-51Zm3EMEM2dpBn07fT631aXpbcBZZWU2zsW7hSlMwdUBn4rP0hr2hRMnwjGFGo2TMCNgxPamIxT4HSgZSLGyCdM746zBXg-GWVM5cnqu9HOoxqv3A2G1RCptYswIgzu3lwZs9FMWiimNos4lCl", "width": 7952}], "place_id": "ChIJh8U3EBNVE4gRZErQ5pdSTWg", "plus_code": {"compound_code": "XP2F+8W Zionsville, IN, USA", "global_code": "86FMXP2F+8W"}, "rating": 4.3, "reference": "ChIJh8U3EBNVE4gRZErQ5pdSTWg", "scope": "GOOGLE", "types": ["park", "tourist_attraction", "point_of_interest", "establishment"], "user_ratings_total": 6, "vicinity": "1100 West Oak Street, Zionsville"}, {"business_status": "OPERATIONAL", "geometry": {"location": {"lat": 39.9414147, "lng": -86.2726825}, "viewport": {"northeast": {"lat": 39.94275133029149, "lng": -86.2713356197085}, "southwest": {"lat": 39.94005336970849, "lng": -86.27403358029152}}}, "icon": "https://maps.gstatic.com/mapfiles/place_api/icons/v1/png_71/park-71.png", "icon_background_color": "#4DB546", "icon_mask_base_uri": "https://maps.gstatic.com/mapfiles/place_api/icons/v2/tree_pinlet", "name": "Starkey Park", "opening_hours": {"open_now": false}, "photos": [{"height": 1085, "html_attributions": ["<a href=\"https://maps.google.com/maps/contrib/100256323094830437394\">Gerardo S\u00e1nchez</a>"], "photo_reference": "Aap_uEDGpyR3PqKceMCYituigBK6sQxjPt0MWiRE0WOcTs-lwtLnwB5ywufOSS_-kvZqCNUu9SKn61o5GzsMXlPnzgcQanAvpiYWzQgg8pKxIPOGGee17UT3gx8p9sFaYkzieXRrx25YWkTffKsXeX5QmNUQgWz9t7E4r3BjOPUHKzGkBgQz", "width": 1440}], "place_id": "ChIJT9E550FVE4gRPku6q6xaak8", "plus_code": {"compound_code": "WPRG+HW Zionsville, IN, USA", "global_code": "86FMWPRG+HW"}, "rating": 4.8, "reference": "ChIJT9E550FVE4gRPku6q6xaak8", "scope": "GOOGLE", "types": ["park", "tourist_attraction", "point_of_interest", "establishment"], "user_ratings_total": 173, "vicinity": "667 Sugarbush Drive, Zionsville"}, {"business_status": "OPERATIONAL", "geometry": {"location": {"lat": 39.9431724, "lng": -86.2468652}, "viewport": {"northeast": {"lat": 39.94439113029151, "lng": -86.24577286970849}, "southwest": {"lat": 39.94169316970851, "lng": -86.24847083029151}}}, "icon": "https://maps.gstatic.com/mapfiles/place_api/icons/v1/png_71/museum-71.png", "icon_background_color": "#13B5C7", "icon_mask_base_uri": "https://maps.gstatic.com/mapfiles/place_api/icons/v2/museum_pinlet", "name": "AFCA Antique Fan Museum", "opening_hours": {"open_now": false}, "photos": [{"height": 3834, "html_attributions": ["<a href=\"https://maps.google.com/maps/contrib/109243651927917278733\">AFCA Antique Fan Museum</a>"], "photo_reference": "Aap_uEBgJOIGwOWo1Nm2ucvtxDCw78RF-q6kQaxwqfHQyZnAT_XgcjVegTVLZkmqxqJMM03qLnL6lpZSigoveouciEJxCMCH0YAvIVXM9JI2OashX0a0Pkk67LBPxBXtBf18dCS_y6zi-_B_y729mrMoZTswJ8hJHVPgEughrRz5OlZny7bu", "width": 5813}], "place_id": "ChIJh7v1QJiqFIgRIgvhfG8kM3I", "plus_code": {"compound_code": "WQV3+77 Zionsville, IN, USA", "global_code": "86FMWQV3+77"}, "rating": 4.8, "reference": "ChIJh7v1QJiqFIgRIgvhfG8kM3I", "scope": "GOOGLE", "types": ["tourist_attraction", "museum", "point_of_interest", "establishment"], "user_ratings_total": 32, "vicinity": "10983 Bennett Parkway, Zionsville"}, {"business_status": "OPERATIONAL", "geometry": {"location": {"lat": 39.9715255, "lng": -86.26757309999999}, "viewport": {"northeast": {"lat": 39.9728655302915, "lng": -86.2662551697085}, "southwest": {"lat": 39.97016756970851, "lng": -86.26895313029151}}}, "icon": "https://maps.gstatic.com/mapfiles/place_api/icons/v1/png_71/park-71.png", "icon_background_color": "#4DB546", "icon_mask_base_uri": "https://maps.gstatic.com/mapfiles/place_api/icons/v2/tree_pinlet", "name": "Turkeyfoot Nature Park", "opening_hours": {"open_now": false}, "photos": [{"height": 2500, "html_attributions": ["<a href=\"https://maps.google.com/maps/contrib/106174721262122624024\">Declan Lopez</a>"], "photo_reference": "Aap_uEBXY4t_MpczCiK70HoqdtJv5mDtS615dfjkJE8kL9TSG5FbNQqc_dqfUpjUc0wgCtIUj_vLpRHAjtUbJq8r0Wb6dQRp1-Cy3n1I-v0kMdcxez9wP0HJVnjQO50enecfeHfj91WFju0tIujuNEabKMa4xZ0K50VhUKGDy_ayPY06gW6t", "width": 1668}], "place_id": "ChIJaRCdvppVE4gRvrYOU_xVeA4", "plus_code": {"compound_code": "XPCJ+JX Zionsville, IN, USA", "global_code": "86FMXPCJ+JX"}, "rating": 4.7, "reference": "ChIJaRCdvppVE4gRvrYOU_xVeA4", "scope": "GOOGLE", "types": ["park", "tourist_attraction", "point_of_interest", "establishment"], "user_ratings_total": 50, "vicinity": "4795 Turkey Foot Road, Zionsville"}, {"business_status": "OPERATIONAL", "geometry": {"location": {"lat": 39.962954, "lng": -86.2853196}, "viewport": {"northeast": {"lat": 39.96433398029151, "lng": -86.28356741970849}, "southwest": {"lat": 39.96163601970851, "lng": -86.2862653802915}}}, "icon": "https://maps.gstatic.com/mapfiles/place_api/icons/v1/png_71/park-71.png", "icon_background_color": "#4DB546", "icon_mask_base_uri": "https://maps.gstatic.com/mapfiles/place_api/icons/v2/tree_pinlet", "name": "Mulberry Fields", "opening_hours": {"open_now": false}, "photos": [{"height": 3024, "html_attributions": ["<a href=\"https://maps.google.com/maps/contrib/109213754844142612658\">Stella Emery Santana</a>"], "photo_reference": "Aap_uEDosKzrGqCbEWoUDDUOdFdduWNq46cc6STv6bNnhwiw1qLjMwbQQjsEciVy_cd6ANnY_-63SZPRcJnnqhT9E-U2yWCG2PkdU43rYSN13GBCo_DZWCRkluMpLZgmrehzoxTjbB2QCXy4DArFBo-HXyfHKCF1svp6I1s9QJd-estlZ1Gm", "width": 4032}], "place_id": "ChIJQcQU96dVE4gR2Di0V2a8vLQ", "plus_code": {"compound_code": "XP77+5V Zionsville, IN, USA", "global_code": "86FMXP77+5V"}, "rating": 4.7, "reference": "ChIJQcQU96dVE4gR2Di0V2a8vLQ", "scope": "GOOGLE", "types": ["park", "tourist_attraction", "point_of_interest", "establishment"], "user_ratings_total": 187, "vicinity": "9645 Whitestown Road, Zionsville"}, {"business_status": "OPERATIONAL", "geometry": {"location": {"lat": 39.95735419999999, "lng": -86.2135243}, "viewport": {"northeast": {"lat": 39.9585619802915, "lng": -86.2121372197085}, "southwest": {"lat": 39.9558640197085, "lng": -86.21483518029152}}}, "icon": "https://maps.gstatic.com/mapfiles/place_api/icons/v1/png_71/generic_business-71.png", "icon_background_color": "#7B9EB0", "icon_mask_base_uri": "https://maps.gstatic.com/mapfiles/place_api/icons/v2/generic_pinlet", "name": "Jill Perelman Pavilion", "opening_hours": {"open_now": false}, "photos": [{"height": 4667, "html_attributions": ["<a href=\"https://maps.google.com/maps/contrib/112888564395912645908\">Jill Perelman Pavilion</a>"], "photo_reference": "Aap_uEB9vS75a_drX_8Kfy4jYxsymnxhvZroZI96RriK1Ncjx_rtmhClm5rn2wRNeUYLZ4g5nl5eV9QkJLYW7ADRXq8Du3sEIhpkoxV8PZ7NIbDREsRJjyafg4QklBOJUe9NamkhJPbL3bCRphtKYL9BJTGJVcKslHGfbohwWKXAM213QWGC", "width": 7000}], "place_id": "ChIJf0_cYIirFIgRu0HbeMCv8Nw", "plus_code": {"compound_code": "XQ4P+WH Carmel, IN, USA", "global_code": "86FMXQ4P+WH"}, "rating": 4.8, "reference": "ChIJf0_cYIirFIgRu0HbeMCv8Nw", "scope": "GOOGLE", "types": ["tourist_attraction", "park", "point_of_interest", "establishment"], "user_ratings_total": 17, "vicinity": "3000 West 116th Street, Carmel"}, {"business_status": "CLOSED_TEMPORARILY", "geometry": {"location": {"lat": 39.957753, "lng": -86.20938559999999}, "viewport": {"northeast": {"lat": 39.95910273029149, "lng": -86.2080131697085}, "southwest": {"lat": 39.95640476970849, "lng": -86.2107111302915}}}, "icon": "https://maps.gstatic.com/mapfiles/place_api/icons/v1/png_71/park-71.png", "icon_background_color": "#4DB546", "icon_mask_base_uri": "https://maps.gstatic.com/mapfiles/place_api/icons/v2/tree_pinlet", "name": "West Park", "permanently_closed": true, "photos": [{"height": 8000, "html_attributions": ["<a href=\"https://maps.google.com/maps/contrib/109310399848295543416\">West Park</a>"], "photo_reference": "Aap_uEDoMDTnoY2A-8SZiVIPYiFUJzQgih5X8q6dfFoUOQSLWMlJuV3ZLc3m2d3kmGD05pPM3UR1VRO8v_uEcQr2r0Qb-ygUyW0iWt22ti4-2JB7swkIcMneFqt0eNeWOVbPEfXSMKEy--TCQD6QAuJtLFCEKLh1gv3OjcbLEkwtYQHwmwmc", "width": 12000}], "place_id": "ChIJH00vfAarFIgR-C_r9sAiX2k", "plus_code": {"compound_code": "XQ5R+46 Carmel, IN, USA", "global_code": "86FMXQ5R+46"}, "rating": 4.7, "reference": "ChIJH00vfAarFIgR-C_r9sAiX2k", "scope": "GOOGLE", "types": ["park", "tourist_attraction", "restaurant", "food", "point_of_interest", "establishment"], "user_ratings_total": 485, "vicinity": "2700 West 116th Street, Carmel"}, {"business_status": "OPERATIONAL", "geometry": {"location": {"lat": 39.956567, "lng": -86.197665}, "viewport": {"northeast": {"lat": 39.95751558029151, "lng": -86.19630831970849}, "southwest": {"lat": 39.95481761970851, "lng": -86.1990062802915}}}, "icon": "https://maps.gstatic.com/mapfiles/place_api/icons/v1/png_71/park-71.png", "icon_background_color": "#4DB546", "icon_mask_base_uri": "https://maps.gstatic.com/mapfiles/place_api/icons/v2/tree_pinlet", "name": "Hamilton County Parks", "opening_hours": {"open_now": false}, "photos": [{"height": 2268, "html_attributions": ["<a href=\"https://maps.google.com/maps/contrib/104463931851219599215\">david commodore</a>"], "photo_reference": "Aap_uEAtFcTmG9kCzWvbc7-5qtZfSpoEQEyo1MzYLssPM7ZjOxFo1AHAU0Ua78ihwKB5TxAdAbqEBN1F-obbzrDQi8foHYipCTTLIEcZdPa8jpWQSaVHx4uawDaJtZt4lmp6oIgftORQj_gFsv5hi4tyBGULWDOpVemswMk5F5W2YtFE_86V", "width": 4032}], "place_id": "ChIJz5YYDAurFIgR7XERkfH4tk0", "plus_code": {"compound_code": "XR42+JW Carmel, IN, USA", "global_code": "86FMXR42+JW"}, "rating": 4.7, "reference": "ChIJz5YYDAurFIgR7XERkfH4tk0", "scope": "GOOGLE", "types": ["park", "tourist_attraction", "point_of_interest", "establishment"], "user_ratings_total": 19, "vicinity": "2020 West 116th Street, Carmel"}, {"business_status": "OPERATIONAL", "geometry": {"location": {"lat": 39.9578199, "lng": -86.1969763}, "viewport": {"northeast": {"lat": 39.9591846802915, "lng": -86.19562761970849}, "southwest": {"lat": 39.9564867197085, "lng": -86.1983255802915}}}, "icon": "https://maps.gstatic.com/mapfiles/place_api/icons/v1/png_71/park-71.png", "icon_background_color": "#4DB546", "icon_mask_base_uri": "https://maps.gstatic.com/mapfiles/place_api/icons/v2/tree_pinlet", "name": "Coxhall Gardens", "opening_hours": {"open_now": false}, "photos": [{"height": 1536, "html_attributions": ["<a href=\"https://maps.google.com/maps/contrib/101168844798295713532\">Coxhall Gardens</a>"], "photo_reference": "Aap_uEBoE9E600vadsjrwjZYNFxcbSojBULa6FLv1bPbGwyvIyF-HAdQtcI89AizzImcGm0MgvZrLSxjLT0-JC8ZPmH_yEmMD0JWBeHtvGg77BqlSz-cFtEh-gb-59WPFobl6ZC3rgKV-2IEs193iGElQ6RZVOQma6y77ILlwUczSm7lHwgO", "width": 2048}], "place_id": "ChIJDVFl8wqrFIgRYSvdHTFkw-c", "plus_code": {"compound_code": "XR53+46 Carmel, IN, USA", "global_code": "86FMXR53+46"}, "rating": 4.7, "reference": "ChIJDVFl8wqrFIgRYSvdHTFkw-c", "scope": "GOOGLE", "types": ["park", "tourist_attraction", "point_of_interest", "establishment"], "user_ratings_total": 668, "vicinity": "11677 Towne Road, Carmel"}], "status": "OK"}]